{"type":"FeatureCollection","features":[{"type":"Feature","properties":{"name":"Hettinger","County":"Adams"},"geometry":{"type":"Point","coordinates":[-102.6368239, 46.0013946]}},{"type":"Feature","properties":{"name":"Valley City #1","County":"Barnes"},"geometry":{"type":"Point","coordinates":[-98.0031547, 46.9233129]}},{"type":"Feature","properties":{"name":"Ft. Totten","County":"Benson"},"geometry":{"type":"Point","coordinates":[-98.992901, 47.979999]}},{"type":"Feature","properties":{"name":"Maddock","County":"Benson"},"geometry":{"type":"Point","coordinates":[-99.530133, 47.962509]}},{"type":"Feature","properties":{"name":"Medora","County":"Billings"},"geometry":{"type":"Point","coordinates":[-103.5243536, 46.9139028]}},{"type":"Feature","properties":{"name":"Bottineau","County":"Bottineau"},"geometry":{"type":"Point","coordinates":[-100.445698, 48.82723]}},{"type":"Feature","properties":{"name":"Bowman","County":"Bowman"},"geometry":{"type":"Point","coordinates":[-103.3949061, 46.1830618]}},{"type":"Feature","properties":{"name":"Bowbells","County":"Burke"},"geometry":{"type":"Point","coordinates":[-102.246001, 48.803083]}},{"type":"Feature","properties":{"name":"Bismarck #1","County":"Burleigh"},"geometry":{"type":"Point","coordinates":[-100.7837392, 46.8083268]}},{"type":"Feature","properties":{"name":"Bismarck #1 W","County":"Burleigh"},"geometry":{"type":"Point","coordinates":[-100.7837392, 46.8083268]}},{"type":"Feature","properties":{"name":"Casselton","County":"Cass"},"geometry":{"type":"Point","coordinates":[-97.2111999, 46.9005292]}},{"type":"Feature","properties":{"name":"Fargo #1","County":"Cass"},"geometry":{"type":"Point","coordinates":[-96.7898034, 46.8771863]}},{"type":"Feature","properties":{"name":"Langdon","County":"Cavalier"},"geometry":{"type":"Point","coordinates":[-98.368173, 48.760001]}},{"type":"Feature","properties":{"name":"Oakes","County":"Dickey"},"geometry":{"type":"Point","coordinates":[-98.090379, 46.138579]}},{"type":"Feature","properties":{"name":"Crosby","County":"Divide"},"geometry":{"type":"Point","coordinates":[-103.2949095, 48.9141998]}},{"type":"Feature","properties":{"name":"Manning","County":"Dunn"},"geometry":{"type":"Point","coordinates":[-102.770349, 47.230005]}},{"type":"Feature","properties":{"name":"New Hradec","County":"Dunn"},"geometry":{"type":"Point","coordinates":[-102.884348, 46.999456]}},{"type":"Feature","properties":{"name":"New Rockford","County":"Eddy"},"geometry":{"type":"Point","coordinates":[-99.137895, 47.679999]}},{"type":"Feature","properties":{"name":"Linton","County":"Emmons"},"geometry":{"type":"Point","coordinates":[-100.2328916, 46.2666567]}},{"type":"Feature","properties":{"name":"Hazelton","County":"Emmons"},"geometry":{"type":"Point","coordinates":[-100.279557, 46.484713]}},{"type":"Feature","properties":{"name":"Carrington","County":"Foster"},"geometry":{"type":"Point","coordinates":[-99.126223, 47.44972]}},{"type":"Feature","properties":{"name":"Beach","County":"Golden Valley"},"geometry":{"type":"Point","coordinates":[-104.0043728, 46.9180689]}},{"type":"Feature","properties":{"name":"Grand Forks #1","County":"Grand Forks"},"geometry":{"type":"Point","coordinates":[-97.0328547, 47.9252568]}},{"type":"Feature","properties":{"name":"Elgin","County":"Grant"},"geometry":{"type":"Point","coordinates":[-101.845979, 46.403896]}},{"type":"Feature","properties":{"name":"Carson","County":"Grant"},"geometry":{"type":"Point","coordinates":[-101.564865, 46.417784]}},{"type":"Feature","properties":{"name":"Cooperstown","County":"Griggs"},"geometry":{"type":"Point","coordinates":[-98.123984, 47.444438]}},{"type":"Feature","properties":{"name":"Mott","County":"Hettinger"},"geometry":{"type":"Point","coordinates":[-102.327106, 46.372503]}},{"type":"Feature","properties":{"name":"Steele","County":"Kidder"},"geometry":{"type":"Point","coordinates":[-99.915938, 46.854707]}},{"type":"Feature","properties":{"name":"Lake Isabel","County":"Kidder"},"geometry":{"type":"Point","coordinates":[-99.752716, 46.820218]}},{"type":"Feature","properties":{"name":"Camp Grassick","County":"Kidder"},"geometry":{"type":"Point","coordinates":[-99.747662, 46.809801]}},{"type":"Feature","properties":{"name":"LaMoure","County":"LaMoure"},"geometry":{"type":"Point","coordinates":[-98.294543, 46.357192]}},{"type":"Feature","properties":{"name":"Napoleon","County":"Logan"},"geometry":{"type":"Point","coordinates":[-99.77122, 46.508313]}},{"type":"Feature","properties":{"name":"Washburn","County":"McLean"},"geometry":{"type":"Point","coordinates":[-101.029035, 47.28916]}},{"type":"Feature","properties":{"name":"Towner","County":"McHenry"},"geometry":{"type":"Point","coordinates":[-100.405412, 48.345833]}},{"type":"Feature","properties":{"name":"Ashley","County":"McIntosh"},"geometry":{"type":"Point","coordinates":[-99.371503, 46.034141]}},{"type":"Feature","properties":{"name":"Watford City","County":"McKenzie"},"geometry":{"type":"Point","coordinates":[-103.283247, 47.802241]}},{"type":"Feature","properties":{"name":"Washburn","County":"McLean"},"geometry":{"type":"Point","coordinates":[-101.029035, 47.28916]}},{"type":"Feature","properties":{"name":"Deep Wtr Creek Bay","County":"McLean"},"geometry":{"type":"Point","coordinates":[-102.188712, 47.726897]}},{"type":"Feature","properties":{"name":"Beulah","County":"Mercer"},"geometry":{"type":"Point","coordinates":[-101.7779462, 47.2633403]}},{"type":"Feature","properties":{"name":"Hazen","County":"Mercer"},"geometry":{"type":"Point","coordinates":[-101.622665, 47.294448]}},{"type":"Feature","properties":{"name":"Elgin","County":"Mercer"},"geometry":{"type":"Point","coordinates":[-101.845979, 46.403896]}},{"type":"Feature","properties":{"name":"Almont","County":"Morton"},"geometry":{"type":"Point","coordinates":[-101.502644, 46.72528]}},{"type":"Feature","properties":{"name":"Hebron","County":"Morton"},"geometry":{"type":"Point","coordinates":[-102.0319833, 46.9324415]}},{"type":"Feature","properties":{"name":"Mandan #1 PW","County":"Morton"},"geometry":{"type":"Point","coordinates":[-100.889576, 46.82666]}},{"type":"Feature","properties":{"name":"New Town","County":"Mountrail"},"geometry":{"type":"Point","coordinates":[-102.4901804, 47.9808483]}},{"type":"Feature","properties":{"name":"Stanley","County":"Mountrail"},"geometry":{"type":"Point","coordinates":[-102.3905, 48.3172]}},{"type":"Feature","properties":{"name":"McVille","County":"Nelson"},"geometry":{"type":"Point","coordinates":[-98.177321, 47.763884]}},{"type":"Feature","properties":{"name":"Center","County":"Oliver"},"geometry":{"type":"Point","coordinates":[-101.299594, 47.1163849]}},{"type":"Feature","properties":{"name":"Hanover","County":"Oliver"},"geometry":{"type":"Point","coordinates":[-101.42654, 47.111388]}},{"type":"Feature","properties":{"name":"Hannover","County":"Oliver"},"geometry":{"type":"Point","coordinates":[-101.42654, 47.111388]}},{"type":"Feature","properties":{"name":"Drayton","County":"Pembina"},"geometry":{"type":"Point","coordinates":[-97.177848, 48.571096]}},{"type":"Feature","properties":{"name":"Pembina","County":"Pembina"},"geometry":{"type":"Point","coordinates":[-97.243676, 48.966377]}},{"type":"Feature","properties":{"name":"Rugby","County":"Pierce"},"geometry":{"type":"Point","coordinates":[-99.996246, 48.368888]}},{"type":"Feature","properties":{"name":"Devils Lake #1","County":"Ramsey"},"geometry":{"type":"Point","coordinates":[-98.8651202, 48.112779]}},{"type":"Feature","properties":{"name":"Enderlin","County":"Ransom"},"geometry":{"type":"Point","coordinates":[-97.601486, 46.623028]}},{"type":"Feature","properties":{"name":"Lisbon","County":"Ransom"},"geometry":{"type":"Point","coordinates":[-97.68121, 46.441634]}},{"type":"Feature","properties":{"name":"Mouse River","County":"Renville"},"geometry":{"type":"Point","coordinates":[-100.590456, 48.573686]}},{"type":"Feature","properties":{"name":"Mohall","County":"Renville"},"geometry":{"type":"Point","coordinates":[-101.513217, 48.763356]}},{"type":"Feature","properties":{"name":"Wahpeton #1","County":"Richland"},"geometry":{"type":"Point","coordinates":[-96.605907, 46.265237]}},{"type":"Feature","properties":{"name":"Belcourt","County":"Rolette"},"geometry":{"type":"Point","coordinates":[-99.744869, 48.839171]}},{"type":"Feature","properties":{"name":"Rolla","County":"Rolette"},"geometry":{"type":"Point","coordinates":[-99.617922, 48.857784]}},{"type":"Feature","properties":{"name":"Forman","County":"Sargent"},"geometry":{"type":"Point","coordinates":[-97.636486, 46.107742]}},{"type":"Feature","properties":{"name":"Formen","County":"Sargent"},"geometry":{"type":"Point","coordinates":[-97.636486, 46.107742]}},{"type":"Feature","properties":{"name":"Martin","County":"Sheridan"},"geometry":{"type":"Point","coordinates":[-100.115131, 47.826667]}},{"type":"Feature","properties":{"name":"Fort Yates","County":"Sioux"},"geometry":{"type":"Point","coordinates":[-100.630127, 46.086941]}},{"type":"Feature","properties":{"name":"Ft. Yates","County":"Sioux"},"geometry":{"type":"Point","coordinates":[-100.630127, 46.086941]}},{"type":"Feature","properties":{"name":"Amidon","County":"Slope"},"geometry":{"type":"Point","coordinates":[-103.321847, 46.482233]}},{"type":"Feature","properties":{"name":"Marmarth","County":"Slope"},"geometry":{"type":"Point","coordinates":[-103.920762, 46.295006]}},{"type":"Feature","properties":{"name":"Belfield","County":"Stark"},"geometry":{"type":"Point","coordinates":[-103.1996219, 46.8852906]}},{"type":"Feature","properties":{"name":"Dickinson #1","County":"Stark"},"geometry":{"type":"Point","coordinates":[-102.7896242, 46.8791756]}},{"type":"Feature","properties":{"name":"Dickinson #1 City","County":"Stark"},"geometry":{"type":"Point","coordinates":[-102.7896242, 46.7959]}},{"type":"Feature","properties":{"name":"Finley","County":"Steele"},"geometry":{"type":"Point","coordinates":[-97.835925, 47.514158]}},{"type":"Feature","properties":{"name":"Jamestown #1","County":"Stutsman"},"geometry":{"type":"Point","coordinates":[-98.7084357, 46.9105438]}},{"type":"Feature","properties":{"name":"Cando","County":"Towner"},"geometry":{"type":"Point","coordinates":[-99.209859, 48.486668]}},{"type":"Feature","properties":{"name":"Hillsboro","County":"Traill"},"geometry":{"type":"Point","coordinates":[-97.062031, 47.403868]}},{"type":"Feature","properties":{"name":"Grafton","County":"Walsh"},"geometry":{"type":"Point","coordinates":[-97.410634, 48.412211]}},{"type":"Feature","properties":{"name":"Minot #1","County":"Ward"},"geometry":{"type":"Point","coordinates":[-101.3129402, 48.2405652]}},{"type":"Feature","properties":{"name":"Minot Oak Park(1)","County":"Ward"},"geometry":{"type":"Point","coordinates":[-101.3129402, 48.2405652]}},{"type":"Feature","properties":{"name":"Minot Chris (3)","County":"Ward "},"geometry":{"type":"Point","coordinates":[-101.3755906, 48.2329668]}},{"type":"Feature","properties":{"name":"Harvey","County":"Wells"},"geometry":{"type":"Point","coordinates":[-99.935404, 47.769723]}},{"type":"Feature","properties":{"name":"Tioga","County":"Williams"},"geometry":{"type":"Point","coordinates":[-102.938238, 48.397244]}},{"type":"Feature","properties":{"name":"Williston #1","County":"Williams"},"geometry":{"type":"Point","coordinates":[-103.6179745, 48.1469683]}}]}